{
  "type": "FeatureCollection",
  "generator": "overpass-ide",
  "copyright": "The data included in this document is from www.openstreetmap.org. The data is made available under ODbL.",
  "timestamp": "2020-09-21T15:17:02Z",
  "features": [
    {
      "type": "Feature",
      "properties": {
        "@id": "node/64888570",
	"category": "Post",
        "amenity": "post_office",
        "toilets:wheelchair": "yes",
        "wheelchair": "yes"
      },
      "geometry": {
        "type": "Point",
        "coordinates": [
          13.5070486,
          52.5647779
        ]
      },
      "id": "node/64888570"
    },
    {
      "type": "Feature",
      "properties": {
        "@id": "node/278445956",
	"category": "Post",
        "amenity": "post_box",
        "collection_times": "Mo-Fr 17:00; Sa 12:00",
        "operator": "Deutsche Post",
        "ref": "Falkenberger Ch. 87, 13051 Berlin"
      },
      "geometry": {
        "type": "Point",
        "coordinates": [
          13.5131979,
          52.566494
        ]
      },
      "id": "node/278445956"
    },
    {
      "type": "Feature",
      "properties": {
        "@id": "node/324205073",
	"category": "Post",
        "amenity": "post_box",
        "collection_times": "Mo-Fr 17:15; Sa 12:15",
        "operator": "Deutsche Post",
        "ref": "Ribnitzer Str. 12, 13051 Berlin"
      },
      "geometry": {
        "type": "Point",
        "coordinates": [
          13.4993665,
          52.5712601
        ]
      },
      "id": "node/324205073"
    },
    {
      "type": "Feature",
      "properties": {
        "@id": "node/364048640",
	"category": "Supermarkt",
        "brand": "Aldi",
        "brand:wikidata": "Q125054",
        "brand:wikipedia": "en:Aldi",
        "name": "Aldi",
        "shop": "supermarket",
        "wheelchair": "yes"
      },
      "geometry": {
        "type": "Point",
        "coordinates": [
          13.5073008,
          52.564489
        ]
      },
      "id": "node/364048640"
    },
    {
      "type": "Feature",
      "properties": {
        "@id": "node/365460398",
	"category": "Post",
        "amenity": "post_box",
        "collection_times": "Mo-Fr 17:15; Sa 12:30",
        "operator": "Deutsche Post",
        "ref": "Borner Str. 23, 13051 Berlin"
      },
      "geometry": {
        "type": "Point",
        "coordinates": [
          13.4960887,
          52.5654437
        ]
      },
      "id": "node/365460398"
    },
    {
      "type": "Feature",
      "properties": {
        "@id": "node/365599740",
	"category": "Spielplatz",
        "leisure": "playground"
      },
      "geometry": {
        "type": "Point",
        "coordinates": [
          13.4942184,
          52.5675673
        ]
      },
      "id": "node/365599740"
    },
    {
      "type": "Feature",
      "properties": {
        "@id": "node/365599742",
	"category": "Spielplatz",
        "leisure": "playground"
      },
      "geometry": {
        "type": "Point",
        "coordinates": [
          13.495375,
          52.5674389
        ]
      },
      "id": "node/365599742"
    },
    {
      "type": "Feature",
      "properties": {
        "@id": "node/365599745",
	"category": "Spielplatz",
        "leisure": "playground"
      },
      "geometry": {
        "type": "Point",
        "coordinates": [
          13.4973212,
          52.5666209
        ]
      },
      "id": "node/365599745"
    },
    {
      "type": "Feature",
      "properties": {
        "@id": "node/365599748",
	"category": "Spielplatz",
        "leisure": "playground"
      },
      "geometry": {
        "type": "Point",
        "coordinates": [
          13.4992618,
          52.5650256
        ]
      },
      "id": "node/365599748"
    },
    {
      "type": "Feature",
      "properties": {
        "@id": "node/365599750",
	"category": "Spielplatz",
        "leisure": "playground"
      },
      "geometry": {
        "type": "Point",
        "coordinates": [
          13.4996622,
          52.5663539
        ]
      },
      "id": "node/365599750"
    },
    {
      "type": "Feature",
      "properties": {
        "@id": "node/365599754",
	"category": "Post",
        "amenity": "post_box",
        "collection_times": "Mo-Fr 17:15; Sa 12:15",
        "operator": "Deutsche Post",
        "ref": "Reriker Str. 18, 13051 Berlin"
      },
      "geometry": {
        "type": "Point",
        "coordinates": [
          13.4925725,
          52.571633
        ]
      },
      "id": "node/365599754"
    },
    {
      "type": "Feature",
      "properties": {
        "@id": "node/365632299",
	"category": "Post",
        "amenity": "post_box",
        "collection_times": "Mo-Fr 17:15, 21:30; Sa 12:15; Su 21:30",
        "operator": "Deutsche Post",
        "ref": "Ribnitzer Str. 26, 13051 Berlin"
      },
      "geometry": {
        "type": "Point",
        "coordinates": [
          13.4956687,
          52.5696519
        ]
      },
      "id": "node/365632299"
    },
    {
      "type": "Feature",
      "properties": {
        "@id": "node/368889206",
	"category": "Post",
        "amenity": "post_box",
        "collection_times": "Mo-Fr 17:00; Sa 12:00",
        "operator": "Deutsche Post",
        "ref": "Röttkenring 24, 13053 Berlin"
      },
      "geometry": {
        "type": "Point",
        "coordinates": [
          13.5129375,
          52.5593929
        ]
      },
      "id": "node/368889206"
    },
    {
      "type": "Feature",
      "properties": {
        "@id": "node/368889427",
	"category": "Post",
        "amenity": "post_box",
        "collection_times": "Mo-Fr 17:00; Sa 12:00",
        "operator": "Deutsche Post",
        "ref": "Matenzeile 19, 13053 Berlin"
      },
      "geometry": {
        "type": "Point",
        "coordinates": [
          13.51056,
          52.5612296
        ]
      },
      "id": "node/368889427"
    },
    {
      "type": "Feature",
      "properties": {
        "@id": "node/368890122",
	"category": "Post",
        "amenity": "post_box",
        "brand": "Deutsche Post",
        "collection_times": "Mo-Fr 13:45,17:00,21:15; Sa 12:00; Su 21:15",
        "operator": "Deutsche Post AG",
        "ref": "Prerower Platz 1, 13051 Berlin"
      },
      "geometry": {
        "type": "Point",
        "coordinates": [
          13.5073241,
          52.5646732
        ]
      },
      "id": "node/368890122"
    },
    {
      "type": "Feature",
      "properties": {
        "@id": "node/408289622",
	"category": "Bushaltestelle",
        "highway": "bus_stop",
        "name": "Vincent-van-Gogh-Straße"
      },
      "geometry": {
        "type": "Point",
        "coordinates": [
          13.525194,
          52.5645339
        ]
      },
      "id": "node/408289622"
    },
    {
      "type": "Feature",
      "properties": {
        "@id": "node/408298554",
	"category": "Bushaltestelle",
        "highway": "bus_stop",
        "name": "Vincent-van-Gogh-Straße"
      },
      "geometry": {
        "type": "Point",
        "coordinates": [
          13.5241692,
          52.5651286
        ]
      },
      "id": "node/408298554"
    },
    {
      "type": "Feature",
      "properties": {
        "@id": "node/410220643",
	"category": "Bushaltestelle",
        "highway": "bus_stop",
        "name": "Seehausener Straße"
      },
      "geometry": {
        "type": "Point",
        "coordinates": [
          13.524652,
          52.5619984
        ]
      },
      "id": "node/410220643"
    },
    {
      "type": "Feature",
      "properties": {
        "@id": "node/410220644",
	"category": "Bushaltestelle",
        "highway": "bus_stop",
        "name": "Seehausener Straße"
      },
      "geometry": {
        "type": "Point",
        "coordinates": [
          13.5240668,
          52.5619016
        ]
      },
      "id": "node/410220644"
    },
    {
      "type": "Feature",
      "properties": {
        "@id": "node/410221445",
	"category": "Bushaltestelle",
        "highway": "bus_stop",
        "name": "Zu den Krugwiesen"
      },
      "geometry": {
        "type": "Point",
        "coordinates": [
          13.5250876,
          52.5591588
        ]
      },
      "id": "node/410221445"
    },
    {
      "type": "Feature",
      "properties": {
        "@id": "node/410221446",
	"category": "Bushaltestelle",
        "highway": "bus_stop",
        "name": "Zu den Krugwiesen"
      },
      "geometry": {
        "type": "Point",
        "coordinates": [
          13.5244627,
          52.5598191
        ]
      },
      "id": "node/410221446"
    },
    {
      "type": "Feature",
      "properties": {
        "@id": "node/469721446",
	"category": "Bushaltestelle",
        "highway": "bus_stop",
        "name": "S Gehrenseestraße"
      },
      "geometry": {
        "type": "Point",
        "coordinates": [
          13.5258262,
          52.5558245
        ]
      },
      "id": "node/469721446"
    },
    {
      "type": "Feature",
      "properties": {
        "@id": "node/469721541",
	"category": "Bushaltestelle",
        "highway": "bus_stop",
        "name": "S Gehrenseestraße"
      },
      "geometry": {
        "type": "Point",
        "coordinates": [
          13.5269903,
          52.5562264
        ]
      },
      "id": "node/469721541"
    },
    {
      "type": "Feature",
      "properties": {
        "@id": "node/483556378",
	"category": "Bushaltestelle",
        "highway": "bus_stop",
        "name": "Darßer Straße/Ribnitzer Straße"
      },
      "geometry": {
        "type": "Point",
        "coordinates": [
          13.4929646,
          52.5651544
        ]
      },
      "id": "node/483556378"
    },
    {
      "type": "Feature",
      "properties": {
        "@id": "node/483556380",
	"category": "Bushaltestelle",
        "highway": "bus_stop",
        "name": "Darßer Straße/Ribnitzer Straße"
      },
      "geometry": {
        "type": "Point",
        "coordinates": [
          13.4931048,
          52.5649058
        ]
      },
      "id": "node/483556380"
    },
    {
      "type": "Feature",
      "properties": {
        "@id": "node/491427769",
	"category": "Bushaltestelle",
        "highway": "bus_stop",
        "name": "Schweriner Ring"
      },
      "geometry": {
        "type": "Point",
        "coordinates": [
          13.5110702,
          52.5754432
        ]
      },
      "id": "node/491427769"
    },
    {
      "type": "Feature",
      "properties": {
        "@id": "node/491427771",
	"category": "Bushaltestelle",
        "highway": "bus_stop",
        "name": "Dorfstraße/Lindenberger Straße",
        "name:VBB": "Dorfstr./Lindenberger Str. (Berlin)",
        "wheelchair": "limited"
      },
      "geometry": {
        "type": "Point",
        "coordinates": [
          13.5180873,
          52.5751481
        ]
      },
      "id": "node/491427771"
    },
    {
      "type": "Feature",
      "properties": {
        "@id": "node/491427772",
	"category": "Bushaltestelle",
        "highway": "bus_stop",
        "name": "Hagenower Ring",
        "name:VBB": "Hagenower Ring (Berlin)",
        "wheelchair": "yes"
      },
      "geometry": {
        "type": "Point",
        "coordinates": [
          13.5054362,
          52.5756202
        ]
      },
      "id": "node/491427772"
    },
    {
      "type": "Feature",
      "properties": {
        "@id": "node/491427773",
	"category": "Bushaltestelle",
        "highway": "bus_stop",
        "name": "S Wartenberg"
      },
      "geometry": {
        "type": "Point",
        "coordinates": [
          13.5046428,
          52.5734721
        ]
      },
      "id": "node/491427773"
    },
    {
      "type": "Feature",
      "properties": {
        "@id": "node/491427776",
	"category": "Bushaltestelle",
        "highway": "bus_stop",
        "name": "Neubrandenburger Straße",
        "name:VBB": "Neubrandenburger Str. (Berlin)",
        "wheelchair": "yes"
      },
      "geometry": {
        "type": "Point",
        "coordinates": [
          13.5094302,
          52.5697221
        ]
      },
      "id": "node/491427776"
    },
    {
      "type": "Feature",
      "properties": {
        "@id": "node/491427871",
	"category": "Bushaltestelle",
        "highway": "bus_stop",
        "name": "Grevesmühlener Straße",
        "name:VBB": "Grevesmühlener Str. (Berlin)",
        "shelter": "yes",
        "wheelchair": "yes"
      },
      "geometry": {
        "type": "Point",
        "coordinates": [
          13.5137216,
          52.5678429
        ]
      },
      "id": "node/491427871"
    },
    {
      "type": "Feature",
      "properties": {
        "@id": "node/491427874",
	"category": "Bushaltestelle",
        "highway": "bus_stop",
        "name": "Falkenberger Chaussee/Prendener Straße"
      },
      "geometry": {
        "type": "Point",
        "coordinates": [
          13.5193894,
          52.5686439
        ]
      },
      "id": "node/491427874"
    },
    {
      "type": "Feature",
      "properties": {
        "@id": "node/491427875",
	"category": "Bushaltestelle",
        "highway": "bus_stop",
        "name": "Falkenberger Chaussee/Prendener Straße"
      },
      "geometry": {
        "type": "Point",
        "coordinates": [
          13.521343,
          52.5685462
        ]
      },
      "id": "node/491427875"
    },
    {
      "type": "Feature",
      "properties": {
        "@id": "node/491460904",
	"category": "Bushaltestelle",
        "highway": "bus_stop",
        "name": "Hansastraße/Malchower Weg"
      },
      "geometry": {
        "type": "Point",
        "coordinates": [
          13.5009411,
          52.5611568
        ]
      },
      "id": "node/491460904"
    },
    {
      "type": "Feature",
      "properties": {
        "@id": "node/491460905",
	"category": "Bushaltestelle",
        "highway": "bus_stop",
        "name": "Hansastraße/Malchower Weg"
      },
      "geometry": {
        "type": "Point",
        "coordinates": [
          13.5007209,
          52.5610134
        ]
      },
      "id": "node/491460905"
    },
    {
      "type": "Feature",
      "properties": {
        "@id": "node/491460907",
	"category": "Bushaltestelle",
        "highway": "bus_stop",
        "name": "Königswalder Straße"
      },
      "geometry": {
        "type": "Point",
        "coordinates": [
          13.5018166,
          52.5582738
        ]
      },
      "id": "node/491460907"
    },
    {
      "type": "Feature",
      "properties": {
        "@id": "node/491460908",
	"category": "Bushaltestelle",
        "highway": "bus_stop",
        "name": "Königswalder Straße"
      },
      "geometry": {
        "type": "Point",
        "coordinates": [
          13.5020572,
          52.5578796
        ]
      },
      "id": "node/491460908"
    },
    {
      "type": "Feature",
      "properties": {
        "@id": "node/491471514",
	"category": "Bushaltestelle",
        "highway": "bus_stop",
        "name": "Grevesmühlener Straße",
        "name:VBB": "Grevesmühlener Str. (Berlin)",
        "wheelchair": "yes"
      },
      "geometry": {
        "type": "Point",
        "coordinates": [
          13.5124879,
          52.5680993
        ]
      },
      "id": "node/491471514"
    },
    {
      "type": "Feature",
      "properties": {
        "@id": "node/491471515",
	"category": "Bushaltestelle",
        "highway": "bus_stop",
        "name": "Neubrandenburger Straße",
        "name:VBB": "Neubrandenburger Str. (Berlin)",
        "wheelchair": "yes"
      },
      "geometry": {
        "type": "Point",
        "coordinates": [
          13.5099722,
          52.5695292
        ]
      },
      "id": "node/491471515"
    },
    {
      "type": "Feature",
      "properties": {
        "@id": "node/491471517",
	"category": "Bushaltestelle",
        "highway": "bus_stop",
        "name": "S Wartenberg"
      },
      "geometry": {
        "type": "Point",
        "coordinates": [
          13.5053621,
          52.5731375
        ]
      },
      "id": "node/491471517"
    },
    {
      "type": "Feature",
      "properties": {
        "@id": "node/491471518",
	"category": "Bushaltestelle",
        "highway": "bus_stop",
        "name": "Hagenower Ring",
        "name:VBB": "Hagenower Ring (Berlin)",
        "wheelchair": "yes"
      },
      "geometry": {
        "type": "Point",
        "coordinates": [
          13.5050587,
          52.5755504
        ]
      },
      "id": "node/491471518"
    },
    {
      "type": "Feature",
      "properties": {
        "@id": "node/491471520",
	"category": "Bushaltestelle",
        "highway": "bus_stop",
        "name": "Schweriner Ring"
      },
      "geometry": {
        "type": "Point",
        "coordinates": [
          13.5105597,
          52.5753691
        ]
      },
      "id": "node/491471520"
    },
    {
      "type": "Feature",
      "properties": {
        "@id": "node/491471522",
	"category": "Bushaltestelle",
        "highway": "bus_stop",
        "name": "Dorfstraße/Lindenberger Straße",
        "name:VBB": "Dorfstr./Lindenberger Str. (Berlin)",
        "shelter": "yes",
        "wheelchair": "limited"
      },
      "geometry": {
        "type": "Point",
        "coordinates": [
          13.5185407,
          52.5756922
        ]
      },
      "id": "node/491471522"
    },
    {
      "type": "Feature",
      "properties": {
        "@id": "node/495031977",
	"category": "Bushaltestelle",
        "highway": "bus_stop",
        "name": "Welsestraße"
      },
      "geometry": {
        "type": "Point",
        "coordinates": [
          13.5269335,
          52.569624
        ]
      },
      "id": "node/495031977"
    },
    {
      "type": "Feature",
      "properties": {
        "@id": "node/495031978",
	"category": "Bushaltestelle",
        "highway": "bus_stop",
        "name": "Welsestraße"
      },
      "geometry": {
        "type": "Point",
        "coordinates": [
          13.527903,
          52.5695885
        ]
      },
      "id": "node/495031978"
    },
    {
      "type": "Feature",
      "properties": {
        "@id": "node/495031984",
	"category": "Bushaltestelle",
        "highway": "bus_stop",
        "name": "Falkenberg/Dorfstraße"
      },
      "geometry": {
        "type": "Point",
        "coordinates": [
          13.5364745,
          52.5702883
        ]
      },
      "id": "node/495031984"
    },
    {
      "type": "Feature",
      "properties": {
        "@id": "node/495031986",
	"category": "Bushaltestelle",
        "highway": "bus_stop",
        "name": "Falkenberg/Dorfstraße"
      },
      "geometry": {
        "type": "Point",
        "coordinates": [
          13.5359252,
          52.5705024
        ]
      },
      "id": "node/495031986"
    },
    {
      "type": "Feature",
      "properties": {
        "@id": "node/538255472",
	"category": "Bushaltestelle",
        "highway": "bus_stop",
        "name": "Prerower Platz",
        "wheelchair": "yes"
      },
      "geometry": {
        "type": "Point",
        "coordinates": [
          13.5038864,
          52.5629963
        ]
      },
      "id": "node/538255472"
    },
    {
      "type": "Feature",
      "properties": {
        "@id": "node/538255493",
	"category": "Bushaltestelle",
        "highway": "bus_stop",
        "name": "Prerower Platz"
      },
      "geometry": {
        "type": "Point",
        "coordinates": [
          13.5065018,
          52.5635303
        ]
      },
      "id": "node/538255493"
    },
    {
      "type": "Feature",
      "properties": {
        "@id": "node/602610690",
	"category": "Supermarkt",
        "addr:city": "Berlin",
        "addr:country": "DE",
        "addr:housenumber": "26",
        "addr:postcode": "13051",
        "addr:street": "Ribnitzer Straße",
        "addr:suburb": "Neu-Hohenschönhausen",
        "brand": "Rewe",
        "brand:wikidata": "Q16968817",
        "brand:wikipedia": "en:REWE",
        "name": "Rewe",
        "opening_hours": "Mo-Fr 07:00-24:00; Sa 07:00-23:30",
        "phone": "+49 30 96204060",
        "shop": "supermarket",
        "website": "https://www.rewe.de/",
        "wheelchair": "yes"
      },
      "geometry": {
        "type": "Point",
        "coordinates": [
          13.4947789,
          52.5696161
        ]
      },
      "id": "node/602610690"
    },
    {
      "type": "Feature",
      "properties": {
        "@id": "node/698825083",
	"category": "Bank",
        "amenity": "bank",
        "atm": "yes",
        "name": "Berliner Sparkasse",
        "wheelchair": "yes"
      },
      "geometry": {
        "type": "Point",
        "coordinates": [
          13.5010742,
          52.5661453
        ]
      },
      "id": "node/698825083"
    },
    {
      "type": "Feature",
      "properties": {
        "@id": "node/712159924",
	"category": "Post",
        "amenity": "post_box",
        "collection_times": "Mo-Fr 13:45 ; Sa 11:15",
        "operator": "Deutsche Post",
        "ref": "Perlerstr. 6, 13088 Berlin"
      },
      "geometry": {
        "type": "Point",
        "coordinates": [
          13.4857107,
          52.563566
        ]
      },
      "id": "node/712159924"
    },
    {
      "type": "Feature",
      "properties": {
        "@id": "node/808390952",
	"category": "Supermarkt",
        "name": "Penny",
        "opening_hours": "Mo-Sa 07:00-22:00",
        "shop": "supermarket",
        "wheelchair": "yes"
      },
      "geometry": {
        "type": "Point",
        "coordinates": [
          13.5236444,
          52.5646396
        ]
      },
      "id": "node/808390952"
    },
    {
      "type": "Feature",
      "properties": {
        "@id": "node/808390953",
	"category": "Post",
        "amenity": "post_box",
        "collection_times": "Mo-Fr 16:30; Sa 11:45",
        "operator": "Deutsche Post",
        "ref": "Vincent-Van-Gogh-Str. 20, 13057 Berlin"
      },
      "geometry": {
        "type": "Point",
        "coordinates": [
          13.5241907,
          52.565106
        ]
      },
      "id": "node/808390953"
    },
    {
      "type": "Feature",
      "properties": {
        "@id": "node/808390982",
	"category": "Apotheke",
        "addr:city": "Berlin",
        "addr:country": "DE",
        "addr:housenumber": "134",
        "addr:postcode": "13057",
        "addr:street": "Falkenberger Chaussee",
        "addr:suburb": "Neu-Hohenschönhausen",
        "amenity": "pharmacy",
        "dispensing": "yes",
        "name": "Brunnen-Apotheke",
        "opening_hours": "Mo-Fr 08:00-19:30, Sa 09:00-12:00",
        "phone": "+49 30 92091464",
        "website": "https://www.brunnenapotheke-berlin.de/",
        "wheelchair": "yes"
      },
      "geometry": {
        "type": "Point",
        "coordinates": [
          13.5256044,
          52.5678366
        ]
      },
      "id": "node/808390982"
    },
    {
      "type": "Feature",
      "properties": {
        "@id": "node/808390994",
	"category": "Apotheke",
        "amenity": "pharmacy",
        "dispensing": "yes",
        "healthcare": "pharmacy",
        "name": "Auxilia-Apotheke",
        "toilets:wheelchair": "yes",
        "website": "http://www.auxilia-apotheke.de",
        "wheelchair": "yes"
      },
      "geometry": {
        "type": "Point",
        "coordinates": [
          13.5074727,
          52.5649215
        ]
      },
      "id": "node/808390994"
    },
    {
      "type": "Feature",
      "properties": {
        "@id": "node/808390999",
	"category": "Supermarkt",
        "brand": "Rewe",
        "brand:wikidata": "Q16968817",
        "brand:wikipedia": "en:REWE",
        "name": "Rewe",
        "opening_hours": "Mo-Sa 07:00-23:30",
        "shop": "supermarket",
        "wheelchair": "yes"
      },
      "geometry": {
        "type": "Point",
        "coordinates": [
          13.5281334,
          52.5672215
        ]
      },
      "id": "node/808390999"
    },
    {
      "type": "Feature",
      "properties": {
        "@id": "node/808391004",
	"category": "Supermarkt",
        "name": "Netto Marken-Discount",
        "opening_hours": "Mo-Sa 07:00-22:00",
        "shop": "supermarket",
        "wheelchair": "yes"
      },
      "geometry": {
        "type": "Point",
        "coordinates": [
          13.5272882,
          52.5667339
        ]
      },
      "id": "node/808391004"
    },
    {
      "type": "Feature",
      "properties": {
        "@id": "node/808391009",
	"category": "Supermarkt",
        "brand": "Rewe",
        "brand:wikidata": "Q16968817",
        "brand:wikipedia": "en:REWE",
        "name": "Rewe",
        "opening_hours": "Mo-Sa 07:00-22:00",
        "shop": "supermarket",
        "wheelchair": "yes"
      },
      "geometry": {
        "type": "Point",
        "coordinates": [
          13.5232991,
          52.5649588
        ]
      },
      "id": "node/808391009"
    },
    {
      "type": "Feature",
      "properties": {
        "@id": "node/808391024",
	"category": "Bank",
        "addr:city": "Berlin",
        "addr:housenumber": "6",
        "addr:postcode": "13057",
        "addr:street": "Warnitzer Straße",
        "amenity": "bank",
        "atm": "yes",
        "name": "Sparkasse",
        "opening_hours": "Mo,We,Fr 09:30-15:00; Tu,Th 09:30-18:00",
        "operator": "Berliner Sparkasse",
        "ref": "PKC 232",
        "wheelchair": "yes"
      },
      "geometry": {
        "type": "Point",
        "coordinates": [
          13.5198611,
          52.5663493
        ]
      },
      "id": "node/808391024"
    },
    {
      "type": "Feature",
      "properties": {
        "@id": "node/808391031",
	"category": "Apotheke",
        "addr:city": "Berlin",
        "addr:country": "DE",
        "addr:housenumber": "20",
        "addr:postcode": "13057",
        "addr:street": "Warnitzer Straße",
        "addr:suburb": "Neu-Hohenschönhausen",
        "amenity": "pharmacy",
        "contact:phone": "+49 30 9282088",
        "contact:website": "https://www.falkenapotheke-app.de/",
        "dispensing": "yes",
        "healthcare": "pharmacy",
        "name": "Falken-Apotheke",
        "opening_hours": "Mo-Fr 08:00-19:00, Sa 08:00-13:00",
        "wheelchair": "yes"
      },
      "geometry": {
        "type": "Point",
        "coordinates": [
          13.5180117,
          52.5673914
        ]
      },
      "id": "node/808391031"
    },
    {
      "type": "Feature",
      "properties": {
        "@id": "node/841582603",
	"category": "Spielplatz",
        "leisure": "playground"
      },
      "geometry": {
        "type": "Point",
        "coordinates": [
          13.4937418,
          52.57202
        ]
      },
      "id": "node/841582603"
    },
    {
      "type": "Feature",
      "properties": {
        "@id": "node/1268256366",
	"category": "Bushaltestelle",
        "highway": "bus_stop",
        "name": "Stadion Buschallee/Hansastraße"
      },
      "geometry": {
        "type": "Point",
        "coordinates": [
          13.4863661,
          52.5565343
        ]
      },
      "id": "node/1268256366"
    },
    {
      "type": "Feature",
      "properties": {
        "@id": "node/1268256376",
	"category": "Bushaltestelle",
        "highway": "bus_stop",
        "name": "Stadion Buschallee/Hansastraße"
      },
      "geometry": {
        "type": "Point",
        "coordinates": [
          13.4859382,
          52.556574
        ]
      },
      "id": "node/1268256376"
    },
    {
      "type": "Feature",
      "properties": {
        "@id": "node/1361759605",
	"category": "Spielplatz",
        "leisure": "playground",
        "toilets:wheelchair": "no",
        "wheelchair": "yes"
      },
      "geometry": {
        "type": "Point",
        "coordinates": [
          13.5097674,
          52.5565116
        ]
      },
      "id": "node/1361759605"
    },
    {
      "type": "Feature",
      "properties": {
        "@id": "node/1469947647",
	"category": "Bushaltestelle",
        "highway": "bus_stop",
        "name": "Barther Straße"
      },
      "geometry": {
        "type": "Point",
        "coordinates": [
          13.498411,
          52.5633109
        ]
      },
      "id": "node/1469947647"
    },
    {
      "type": "Feature",
      "properties": {
        "@id": "node/1703460022",
	"category": "Nachbarschaftszentrum",
        "addr:city": "Berlin",
        "addr:country": "DE",
        "addr:housenumber": "1b",
        "addr:postcode": "13051",
        "addr:street": "Ribnitzer Straße",
        "addr:suburb": "Neu-Hohenschönhausen",
        "amenity": "community_centre",
        "contact:facebook": "http://de-de.facebook.com/pages/Nachbarschaftshaus-im-Ostseeviertel/120396648060184",
        "image": "http://i.imgur.com/F2UPil.jpg",
        "name": "Nachbarschaftshaus im Ostseeviertel",
        "toilets:wheelchair": "yes",
        "wheelchair": "yes"
      },
      "geometry": {
        "type": "Point",
        "coordinates": [
          13.5024287,
          52.5720492
        ]
      },
      "id": "node/1703460022"
    },
    {
      "type": "Feature",
      "properties": {
        "@id": "node/1703464229",
	"category": "Spielplatz",
        "leisure": "playground",
        "source": "Garmin Oregon 550"
      },
      "geometry": {
        "type": "Point",
        "coordinates": [
          13.5047245,
          52.5702668
        ]
      },
      "id": "node/1703464229"
    },
    {
      "type": "Feature",
      "properties": {
        "@id": "node/1745574057",
	"category": "Bushaltestelle",
        "highway": "bus_stop",
        "image": "http://i.imgur.com/ebVuil.jpg",
        "name": "Tierheim Berlin/Dorfstraße",
        "source": "Garmin Oregon 550"
      },
      "geometry": {
        "type": "Point",
        "coordinates": [
          13.5415039,
          52.5687243
        ]
      },
      "id": "node/1745574057"
    },
    {
      "type": "Feature",
      "properties": {
        "@id": "node/1745576515",
	"category": "Post",
        "amenity": "post_box",
        "collection_times": "Mo-Fr 13:30; Sa 12:00",
        "image": "http://i.imgur.com/Q8b3Zl.jpg",
        "operator": "Deutsche Post",
        "ref": "Dorfstr. 14, 13057 Berlin"
      },
      "geometry": {
        "type": "Point",
        "coordinates": [
          13.5410262,
          52.5688392
        ]
      },
      "id": "node/1745576515"
    },
    {
      "type": "Feature",
      "properties": {
        "@id": "node/1841186213",
	"category": "Bushaltestelle",
        "highway": "bus_stop",
        "name": "Falkenberg"
      },
      "geometry": {
        "type": "Point",
        "coordinates": [
          13.5277322,
          52.5700402
        ]
      },
      "id": "node/1841186213"
    },
    {
      "type": "Feature",
      "properties": {
        "@id": "node/1860065763",
	"category": "Bushaltestelle",
        "highway": "bus_stop",
        "name": "Lindenberger Straße/Birkenholzer Weg",
        "shelter": "no"
      },
      "geometry": {
        "type": "Point",
        "coordinates": [
          13.5196746,
          52.578464
        ]
      },
      "id": "node/1860065763"
    },
    {
      "type": "Feature",
      "properties": {
        "@id": "node/1860066630",
	"category": "Bushaltestelle",
        "highway": "bus_stop",
        "name": "Lindenberger Straße/Birkenholzer Weg",
        "shelter": "yes"
      },
      "geometry": {
        "type": "Point",
        "coordinates": [
          13.5194213,
          52.5782445
        ]
      },
      "id": "node/1860066630"
    },
    {
      "type": "Feature",
      "properties": {
        "@id": "node/1869640501",
	"category": "Supermarkt",
        "brand": "Netto Marken-Discount",
        "brand:wikidata": "Q879858",
        "brand:wikipedia": "en:Netto Marken-Discount",
        "name": "Netto Marken-Discount",
        "shop": "supermarket",
        "wheelchair": "yes"
      },
      "geometry": {
        "type": "Point",
        "coordinates": [
          13.5110659,
          52.568174
        ]
      },
      "id": "node/1869640501"
    },
    {
      "type": "Feature",
      "properties": {
        "@id": "node/1869640502",
	"category": "Supermarkt",
        "brand": "Penny",
        "brand:wikidata": "Q284688",
        "brand:wikipedia": "en:Penny (supermarket)",
        "name": "Penny",
        "opening_hours": "Mo-Sa 07:00-22:00",
        "shop": "supermarket",
        "wheelchair": "yes"
      },
      "geometry": {
        "type": "Point",
        "coordinates": [
          13.5086404,
          52.5748726
        ]
      },
      "id": "node/1869640502"
    },
    {
      "type": "Feature",
      "properties": {
        "@id": "node/1869640507",
	"category": "Bäcker",
        "name": "Bäcker Feihl",
        "shop": "bakery"
      },
      "geometry": {
        "type": "Point",
        "coordinates": [
          13.50938,
          52.5743565
        ]
      },
      "id": "node/1869640507"
    },
    {
      "type": "Feature",
      "properties": {
        "@id": "node/1869640508",
	"category": "Supermarkt",
        "brand": "Rewe",
        "brand:wikidata": "Q16968817",
        "brand:wikipedia": "en:REWE",
        "name": "Rewe",
        "opening_hours": "Mo-Sa 07:00-22:00",
        "shop": "supermarket",
        "wheelchair": "yes"
      },
      "geometry": {
        "type": "Point",
        "coordinates": [
          13.5096214,
          52.5749673
        ]
      },
      "id": "node/1869640508"
    },
    {
      "type": "Feature",
      "properties": {
        "@id": "node/1987229836",
	"category": "Bushaltestelle",
        "highway": "bus_stop",
        "name": "S Hohenschönhausen",
        "shelter": "yes",
        "tactile_paving": "yes"
      },
      "geometry": {
        "type": "Point",
        "coordinates": [
          13.513732,
          52.5664537
        ]
      },
      "id": "node/1987229836"
    },
    {
      "type": "Feature",
      "properties": {
        "@id": "node/2046807703",
	"category": "Apotheke",
        "addr:city": "Berlin",
        "addr:country": "DE",
        "addr:housenumber": "22",
        "addr:postcode": "13059",
        "addr:street": "Egon-Erwin-Kisch-Straße",
        "addr:suburb": "Neu-Hohenschönhausen",
        "amenity": "pharmacy",
        "dispensing": "yes",
        "healthcare": "pharmacy",
        "name": "Wartenberger Apotheke",
        "opening_hours": "Mo-Fr 08:00-19:00; Sa 09:00-13:00",
        "phone": "+49 30 9298017",
        "wheelchair": "limited"
      },
      "geometry": {
        "type": "Point",
        "coordinates": [
          13.5049368,
          52.5730788
        ]
      },
      "id": "node/2046807703"
    },
    {
      "type": "Feature",
      "properties": {
        "@id": "node/2273462199",
	"category": "Apotheke",
        "amenity": "pharmacy",
        "healthcare": "pharmacy",
        "name": "easy-apotheke Hohenschönhausen",
        "wheelchair": "yes"
      },
      "geometry": {
        "type": "Point",
        "coordinates": [
          13.5108472,
          52.56849
        ]
      },
      "id": "node/2273462199"
    },
    {
      "type": "Feature",
      "properties": {
        "@id": "node/2274239283",
	"category": "Bank",
        "amenity": "bank",
        "brand": "Targobank",
        "brand:wikidata": "Q1455437",
        "brand:wikipedia": "en:Targobank",
        "name": "Targobank",
        "opening_hours": "Mo-Fr 09:00-13:00, Mo,Tu,Th 14:00-18:00, Fr 14:00-17:00",
        "wheelchair": "yes"
      },
      "geometry": {
        "type": "Point",
        "coordinates": [
          13.5170739,
          52.5690756
        ]
      },
      "id": "node/2274239283"
    },
    {
      "type": "Feature",
      "properties": {
        "@id": "node/2274239284",
	"category": "Apotheke",
        "amenity": "pharmacy",
        "dispensing": "yes",
        "healthcare": "pharmacy",
        "name": "Vitalis Apotheke",
        "opening_hours": "Mo-Fr 08:00-19:00, Sa 08:00-13:00",
        "wheelchair": "yes"
      },
      "geometry": {
        "type": "Point",
        "coordinates": [
          13.5162437,
          52.5688682
        ]
      },
      "id": "node/2274239284"
    },
    {
      "type": "Feature",
      "properties": {
        "@id": "node/2419028456",
	"category": "Nachbarschaftszentrum",
        "amenity": "social_facility",
        "name": "Selbsthilfe Kontakt- und Beratungsstelle Horizont",
        "social_facility": "outreach",
        "source": "http://www.selbsthilfe-lichtenberg.de/"
      },
      "geometry": {
        "type": "Point",
        "coordinates": [
          13.5044403,
          52.566658
        ]
      },
      "id": "node/2419028456"
    },
    {
      "type": "Feature",
      "properties": {
        "@id": "node/2603515636",
	"category": "Bushaltestelle",
        "highway": "bus_stop",
        "name": "Dorfstraße/Lindenberger Straße",
        "name:VBB": "Dorfstr./Lindenberger Str. (Berlin)",
        "shelter": "yes",
        "wheelchair": "limited"
      },
      "geometry": {
        "type": "Point",
        "coordinates": [
          13.5188455,
          52.5746463
        ]
      },
      "id": "node/2603515636"
    },
    {
      "type": "Feature",
      "properties": {
        "@id": "node/2865553246",
	"category": "Ambulante Versorgung",
        "addr:city": "Berlin",
        "addr:country": "DE",
        "addr:housenumber": "1B",
        "addr:postcode": "13051",
        "addr:street": "Ribnitzer Straße",
        "addr:suburb": "Neu-Hohenschönhausen",
        "amenity": "social_facility",
        "description": "gemeinnütziger Träger in den Bereichen der Kinder- und Jugendarbeit, Gesundheit sowie Sozial- und Gemeinwesenarbeit",
        "name": "Verein für ambulante Versorgung e.V.",
        "social_facility": "outreach",
        "social_facility:for": "everyone",
        "source": "Geoportal Berlin / Hauskoordinaten",
        "wheelchair": "yes"
      },
      "geometry": {
        "type": "Point",
        "coordinates": [
          13.5022482,
          52.5722119
        ]
      },
      "id": "node/2865553246"
    },
    {
      "type": "Feature",
      "properties": {
        "@id": "node/2866172985",
	"category": "Supermarkt",
        "name": "Netto Berlin -Hohenschönhausen",
        "opening_hours": "Mo-Sa 08:00-21:00",
        "shop": "supermarket",
        "website": "https://www.netto-online.de/Filial-Angebote.chtm",
        "wheelchair": "yes"
      },
      "geometry": {
        "type": "Point",
        "coordinates": [
          13.4960509,
          52.5703289
        ]
      },
      "id": "node/2866172985"
    },
    {
      "type": "Feature",
      "properties": {
        "@id": "node/3033571574",
	"category": "Bushaltestelle",
        "highway": "bus_stop",
        "name": "Falkenberger Chaussee/Prendener Straße"
      },
      "geometry": {
        "type": "Point",
        "coordinates": [
          13.5205357,
          52.5693564
        ]
      },
      "id": "node/3033571574"
    },
    {
      "type": "Feature",
      "properties": {
        "@id": "node/3045761935",
	"category": "Apotheke",
        "addr:city": "Berlin",
        "addr:housenumber": "15",
        "addr:postcode": "13059",
        "addr:street": "Rostocker Straße",
        "addr:suburb": "Neu-Hohenschönhausen",
        "amenity": "pharmacy",
        "dispensing": "yes",
        "healthcare": "pharmacy",
        "name": "Amsel-Apotheke",
        "opening_hours": "Mo-Fr 08:00-20:00; Sa 08:00-15:00",
        "phone": "+49 30 96203963",
        "website": "https://www.amsel-apotheke-app.de/"
      },
      "geometry": {
        "type": "Point",
        "coordinates": [
          13.5094017,
          52.5745184
        ]
      },
      "id": "node/3045761935"
    },
    {
      "type": "Feature",
      "properties": {
        "@id": "node/3045761943",
	"category": "Post",
        "amenity": "post_box",
        "collection_times": "Mo-Fr 15:45; Sa 11:30",
        "operator": "Deutsche Post",
        "ref": "Lindenberger Str. 1, 13059 Berlin"
      },
      "geometry": {
        "type": "Point",
        "coordinates": [
          13.5180576,
          52.5751683
        ]
      },
      "id": "node/3045761943"
    },
    {
      "type": "Feature",
      "properties": {
        "@id": "node/3045761944",
	"category": "Bäcker",
        "addr:city": "Berlin",
        "addr:housenumber": "19",
        "addr:postcode": "13059",
        "addr:street": "Ernst-Barlach-Straße",
        "addr:suburb": "Neu-Hohenschönhausen",
        "brand": "Lila Bäcker",
        "brand:wikidata": "Q57516591",
        "name": "Lila Bäcker",
        "opening_hours": "Mo-Sa 07:00-22:00; Su 08:00-11:00",
        "shop": "bakery",
        "wheelchair": "yes"
      },
      "geometry": {
        "type": "Point",
        "coordinates": [
          13.5094081,
          52.5751815
        ]
      },
      "id": "node/3045761944"
    },
    {
      "type": "Feature",
      "properties": {
        "@id": "node/3075422537",
	"category": "Spielplatz",
        "leisure": "playground"
      },
      "geometry": {
        "type": "Point",
        "coordinates": [
          13.4989451,
          52.5674765
        ]
      },
      "id": "node/3075422537"
    },
    {
      "type": "Feature",
      "properties": {
        "@id": "node/3247931527",
	"category": "Bushaltestelle",
        "highway": "bus_stop",
        "name": "Perler Straße"
      },
      "geometry": {
        "type": "Point",
        "coordinates": [
          13.4851168,
          52.5659183
        ]
      },
      "id": "node/3247931527"
    },
    {
      "type": "Feature",
      "properties": {
        "@id": "node/3247931528",
	"category": "Bushaltestelle",
        "highway": "bus_stop",
        "name": "Perler Straße"
      },
      "geometry": {
        "type": "Point",
        "coordinates": [
          13.4847767,
          52.5661147
        ]
      },
      "id": "node/3247931528"
    },
    {
      "type": "Feature",
      "properties": {
        "@id": "node/3255826195",
	"category": "Post",
        "amenity": "post_box",
        "collection_times": "Mo-Fr 16:15; Sa 11:30",
        "operator": "Deutsche Post",
        "ref": "Egon-Erwin-Kisch-Str. 67, 13059 Berlin"
      },
      "geometry": {
        "type": "Point",
        "coordinates": [
          13.5095222,
          52.5702312
        ]
      },
      "id": "node/3255826195"
    },
    {
      "type": "Feature",
      "properties": {
        "@id": "node/3325166986",
	"category": "Arzt",
        "addr:city": "Berlin",
        "addr:housenumber": "86",
        "addr:postcode": "13059",
        "addr:street": "Neubrandenburger Straße",
        "addr:suburb": "Neu-Hohenschönhausen",
        "amenity": "doctors",
        "healthcare": "doctor",
        "healthcare:speciality": "general",
        "name": "Allgemeinärztin Annette Gurzynski",
        "phone": "+49309288020"
      },
      "geometry": {
        "type": "Point",
        "coordinates": [
          13.5172722,
          52.5720826
        ]
      },
      "id": "node/3325166986"
    },
    {
      "type": "Feature",
      "properties": {
        "@id": "node/3328128873",
	"category": "Bäcker",
        "cuisine": "coffee_shop",
        "name": "Bäckerei Schnell",
        "opening_hours": "Mo-Fr 06:00-17:30",
        "shop": "bakery"
      },
      "geometry": {
        "type": "Point",
        "coordinates": [
          13.5041518,
          52.5733321
        ]
      },
      "id": "node/3328128873"
    },
    {
      "type": "Feature",
      "properties": {
        "@id": "node/3685587135",
	"category": "Bäcker",
        "addr:city": "Berlin",
        "addr:housenumber": "1",
        "addr:postcode": "13051",
        "addr:street": "Prerower Platz",
        "addr:suburb": "Neu-Hohenschönhausen",
        "name": "Bäckerei Schnell",
        "opening_hours": "Mo-Sa 08:00-20:00",
        "shop": "bakery",
        "toilets:wheelchair": "yes",
        "wheelchair": "yes"
      },
      "geometry": {
        "type": "Point",
        "coordinates": [
          13.5060831,
          52.564026
        ]
      },
      "id": "node/3685587135"
    },
    {
      "type": "Feature",
      "properties": {
        "@id": "node/3685604688",
	"category": "Supermarkt",
        "brand": "Edeka",
        "brand:wikidata": "Q701755",
        "brand:wikipedia": "de:Edeka",
        "name": "Edeka",
        "opening_hours": "Mo-Sa 07:00-21:00",
        "shop": "supermarket",
        "toilets:wheelchair": "yes",
        "wheelchair": "yes"
      },
      "geometry": {
        "type": "Point",
        "coordinates": [
          13.4995783,
          52.5607238
        ]
      },
      "id": "node/3685604688"
    },
    {
      "type": "Feature",
      "properties": {
        "@id": "node/3708887802",
	"category": "Bushaltestelle",
        "highway": "bus_stop",
        "name": "Klettwitzer Straße"
      },
      "geometry": {
        "type": "Point",
        "coordinates": [
          13.5311101,
          52.5558493
        ]
      },
      "id": "node/3708887802"
    },
    {
      "type": "Feature",
      "properties": {
        "@id": "node/3708887803",
	"category": "Bushaltestelle",
        "highway": "bus_stop",
        "name": "Klettwitzer Straße"
      },
      "geometry": {
        "type": "Point",
        "coordinates": [
          13.5304459,
          52.5561333
        ]
      },
      "id": "node/3708887803"
    },
    {
      "type": "Feature",
      "properties": {
        "@id": "node/3772659942",
	"category": "Supermarkt",
        "brand": "Rewe",
        "brand:wikidata": "Q16968817",
        "brand:wikipedia": "en:REWE",
        "level": "-1",
        "name": "Rewe",
        "opening_hours": "Mo-Sa 08:00-20:00; PH,Su off",
        "shop": "supermarket",
        "wheelchair": "yes"
      },
      "geometry": {
        "type": "Point",
        "coordinates": [
          13.506818,
          52.5648281
        ]
      },
      "id": "node/3772659942"
    },
    {
      "type": "Feature",
      "properties": {
        "@id": "node/3772669591",
	"category": "Bank",
        "addr:city": "Berlin",
        "addr:housenumber": "1",
        "addr:postcode": "13051",
        "addr:street": "Prerower Platz",
        "amenity": "bank",
        "name": "Sparkasse",
        "opening_hours": "Mo-Fr 09:30-18:00",
        "operator": "Berliner Sparkasse",
        "ref": "PKC 231",
        "wheelchair": "yes"
      },
      "geometry": {
        "type": "Point",
        "coordinates": [
          13.5073759,
          52.5644955
        ]
      },
      "id": "node/3772669591"
    },
    {
      "type": "Feature",
      "properties": {
        "@id": "node/3772676294",
	"category": "Apotheke",
        "amenity": "pharmacy",
        "healthcare": "pharmacy",
        "name": "Linden-Apotheke",
        "website": "https://www.lindenapotheke-app.de/",
        "wheelchair": "yes"
      },
      "geometry": {
        "type": "Point",
        "coordinates": [
          13.5063513,
          52.5650466
        ]
      },
      "id": "node/3772676294"
    },
    {
      "type": "Feature",
      "properties": {
        "@id": "node/4109300804",
	"category": "Post",
        "amenity": "post_box",
        "collection_times": "Mo-Fr 17:00; Sa 12:00",
        "operator": "Deutsche Post",
        "ref": "Wustrower Str. 37, 13051 Berlin"
      },
      "geometry": {
        "type": "Point",
        "coordinates": [
          13.5044089,
          52.5694869
        ]
      },
      "id": "node/4109300804"
    },
    {
      "type": "Feature",
      "properties": {
        "@id": "node/4199958673",
	"category": "Bushaltestelle",
        "highway": "bus_stop",
        "name": "Prerower Platz",
        "wheelchair": "yes"
      },
      "geometry": {
        "type": "Point",
        "coordinates": [
          13.504104,
          52.5626815
        ]
      },
      "id": "node/4199958673"
    },
    {
      "type": "Feature",
      "properties": {
        "@id": "node/4200225422",
	"category": "Bushaltestelle",
        "highway": "bus_stop",
        "name": "Barther Straße"
      },
      "geometry": {
        "type": "Point",
        "coordinates": [
          13.498531,
          52.5635538
        ]
      },
      "id": "node/4200225422"
    },
    {
      "type": "Feature",
      "properties": {
        "@id": "node/5797945753",
	"category": "Supermarkt",
        "addr:city": "Berlin",
        "addr:country": "DE",
        "addr:housenumber": "6",
        "addr:postcode": "13051",
        "addr:street": "Zingster Straße",
        "addr:suburb": "Neu-Hohenschönhausen",
        "contact:phone": "+49 30 91460852",
        "diet:halal": "yes",
        "name": "Kefan",
        "opening_hours": "Mo-Su 08:00-21:00",
        "operator": "Kefan GmbH",
        "shop": "supermarket",
        "toilets:wheelchair": "yes",
        "wheelchair": "limited"
      },
      "geometry": {
        "type": "Point",
        "coordinates": [
          13.5037243,
          52.5649609
        ]
      },
      "id": "node/5797945753"
    },
    {
      "type": "Feature",
      "properties": {
        "@id": "node/6382773513",
	"category": "Supermarkt",
        "addr:city": "Berlin",
        "addr:country": "DE",
        "addr:housenumber": "20",
        "addr:postcode": "13057",
        "addr:street": "Warnitzer Straße",
        "addr:suburb": "Neu-Hohenschönhausen",
        "name": "R-Markt",
        "opening_hours": "Mo-Fr 10:00-17:00; Sa 10:00-14:00",
        "shop": "supermarket"
      },
      "geometry": {
        "type": "Point",
        "coordinates": [
          13.5176126,
          52.5672818
        ]
      },
      "id": "node/6382773513"
    },
    {
      "type": "Feature",
      "properties": {
        "@id": "node/7235438319",
	"category": "Apotheke",
        "addr:city": "Berlin",
        "addr:housenumber": "236",
        "addr:postcode": "13051",
        "addr:street": "Hansastraße",
        "amenity": "pharmacy",
        "dispensing": "yes",
        "drive_through": "no",
        "healthcare": "pharmacy",
        "name": "Schneemann’s Apotheke",
        "opening_hours": "Mo-Fr 9:00-19:00, Sa 09:00-16:00",
        "operator": "Carolin und Stefanie Schneemann",
        "website": "https://www.schneemannsapotheke.de/"
      },
      "geometry": {
        "type": "Point",
        "coordinates": [
          13.4995214,
          52.5609315
        ]
      },
      "id": "node/7235438319"
    },
    {
      "type": "Feature",
      "properties": {
        "@id": "node/5145185021",
	"category": "Arzt",
        "addr:housenumber": "2",
        "addr:postcode": "13051",
        "addr:street": "Zingster Straße",
        "amenity": "doctors",
        "healthcare": "doctor",
        "name": "Praxis für Dermatologie Eicholtz & Börner",
        "toilets:wheelchair": "no",
        "website": "https://hautarzt-in-berlin.de/",
        "wheelchair": "yes"
      },
      "geometry": {
        "type": "Point",
        "coordinates": [
          13.504131,
          52.5647045
        ]
      },
      "id": "node/5145185021"
    },
    {
      "type": "Feature",
      "properties": {
        "@id": "node/5166229521",
	"category": "Arzt",
        "addr:housenumber": "1a",
        "addr:postcode": "13051",
        "addr:street": "Zingster Straße",
        "amenity": "doctors",
        "healthcare": "doctor",
        "healthcare:speciality": "neurology;psychiatry",
        "name": "Dr. med. Kathrin Görmer",
        "phone": "+49 30 9285047",
        "wheelchair": "no"
      },
      "geometry": {
        "type": "Point",
        "coordinates": [
          13.5036791,
          52.5637266
        ]
      },
      "id": "node/5166229521"
    },
    {
      "type": "Feature",
      "properties": {
        "@id": "node/4716440132",
	"category": "Spielplatz",
        "leisure": "playground"
      },
      "geometry": {
        "type": "Point",
        "coordinates": [
          13.4893386,
          52.5723739
        ]
      },
      "id": "node/4716440132"
    },
    {
      "type": "Feature",
      "properties": {
        "@id": "node/4813372368",
	"category": "Spielplatz",
        "leisure": "playground"
      },
      "geometry": {
        "type": "Point",
        "coordinates": [
          13.5333944,
          52.5673738
        ]
      },
      "id": "node/4813372368"
    },
    {
      "type": "Feature",
      "properties": {
        "@id": "node/4813395795",
	"category": "Spielplatz",
        "leisure": "playground"
      },
      "geometry": {
        "type": "Point",
        "coordinates": [
          13.5311282,
          52.5640491
        ]
      },
      "id": "node/4813395795"
    },
    {
      "type": "Feature",
      "properties": {
        "@id": "node/5910112949",
	"category": "Spielplatz",
        "leisure": "playground"
      },
      "geometry": {
        "type": "Point",
        "coordinates": [
          13.5014572,
          52.5711641
        ]
      },
      "id": "node/5910112949"
    },
    {
      "type": "Feature",
      "properties": {
        "@id": "node/4537589634",
	"category": "Bäcker",
        "shop": "bakery"
      },
      "geometry": {
        "type": "Point",
        "coordinates": [
          13.5276446,
          52.5670495
        ]
      },
      "id": "node/4537589634"
    },
    {
      "type": "Feature",
      "properties": {
        "@id": "node/4844168021",
	"category": "Bäcker",
        "name": "Lila Bäcker",
        "opening_hours": "Mo-Fr 07:00-19:00; Sa 07:00-18:00; Su,PH off",
        "shop": "bakery",
        "wheelchair": "yes"
      },
      "geometry": {
        "type": "Point",
        "coordinates": [
          13.4962213,
          52.5704021
        ]
      },
      "id": "node/4844168021"
    },
    {
      "type": "Feature",
      "properties": {
        "@id": "node/5933895471",
	"category": "Bäcker",
        "addr:city": "Berlin",
        "addr:country": "DE",
        "addr:housenumber": "18",
        "addr:postcode": "13057",
        "addr:street": "Warnitzer Straße",
        "addr:suburb": "Neu-Hohenschönhausen",
        "name": "Der Bäcker Feihl",
        "opening_hours": "Mo-Fr 07:00-18:00; Sa7:00-12:00; Su 8:00-10:00,14:00-16:00",
        "shop": "bakery",
        "website": "http://www.feihl-berlin.de/"
      },
      "geometry": {
        "type": "Point",
        "coordinates": [
          13.5182811,
          52.567388
        ]
      },
      "id": "node/5933895471"
    },
    {
      "type": "Feature",
      "properties": {
        "@id": "node/5995948087",
	"category": "Supermarkt",
        "addr:postcode": "13057",
        "name": "Märkisch Edel",
        "opening_hours": "Mo-Sa 07:00-20:00",
        "shop": "bakery"
      },
      "geometry": {
        "type": "Point",
        "coordinates": [
          13.5235555,
          52.5651205
        ]
      },
      "id": "node/5995948087"
    },
    {
      "type": "Feature",
      "properties": {
        "@id": "node/6123185385",
	"category": "Nachbarschaftszentrum",
        "addr:housenumber": "10",
        "addr:postcode": "13051",
        "addr:street": "Prerower Platz",
        "amenity": "community_centre",
        "email": "info@360grad-lichtenberg.de",
        "name": "360 Grad – Raum für Kreativität",
        "phone": "+49 030 22 50 37 00",
        "website": "http://360grad-lichtenberg.de"
      },
      "geometry": {
        "type": "Point",
        "coordinates": [
          13.5054952,
          52.5649583
        ]
      },
      "id": "node/6123185385"
    },
    {
      "type": "Feature",
      "properties": {
        "@id": "node/6371252634",
	"category": "Nachbarschaftszentrum",
        "addr:city": "Berlin",
        "addr:country": "DE",
        "addr:housenumber": "8",
        "addr:postcode": "13057",
        "addr:street": "Warnitzer Straße",
        "addr:suburb": "Neu-Hohenschönhausen",
        "amenity": "community_centre",
        "contact:email": "sbst.warnitzer@gmx.de",
        "contact:phone": "+49 30 9290284",
        "contact:website": "http://www.vav-hhausen.de/SBS-Warnitzer-Bogen/sbst-warnitzer-start.html",
        "name": "Begegnungsstätte Warnitzer Bogen",
        "operator": "Verein für ambulante Versorgung Hohenschönhausen e.V."
      },
      "geometry": {
        "type": "Point",
        "coordinates": [
          13.5193811,
          52.5666416
        ]
      },
      "id": "node/6371252634"
    },
    {
      "type": "Feature",
      "properties": {
        "@id": "node/6371252637",
	"category": "Nachbarschaftszentrum",
        "addr:city": "Berlin",
        "addr:housenumber": "14",
        "addr:postcode": "13057",
        "addr:street": "Warnitzer Straße",
        "amenity": "community_centre",
        "contact:phone": "+49 30 92409984",
        "contact:website": "https://www.benn-hohenschoenhausen.de/",
        "name": "Benn Hohenschönhausen Nord",
        "opening_hours": "Mo 13:00-16:00; Tu 16:00-19:00; We 10:00-16:00; Th \"by appointment\"",
        "operator": "SozDia Jugendhilfe, Bildung und Arbeit gGmbH"
      },
      "geometry": {
        "type": "Point",
        "coordinates": [
          13.5188001,
          52.5672837
        ]
      },
      "id": "node/6371252637"
    },
    {
      "type": "Feature",
      "properties": {
        "@id": "node/5215272087",
	"category": "Nachbarschaftszentrum",
        "addr:city": "Berlin",
        "addr:country": "DE",
        "addr:housenumber": "6",
        "addr:postcode": "13059",
        "addr:street": "Demminer Straße",
        "addr:suburb": "Neu-Hohenschönhausen",
        "amenity": "social_facility",
        "name": "Kinder-/Jugendhilfeambulanz (VdK)",
        "social_facility": "outreach",
        "social_facility:for": "child;juvenile",
        "website": "http://www.kja-spz-berlin.de/"
      },
      "geometry": {
        "type": "Point",
        "coordinates": [
          13.5120768,
          52.5696787
        ]
      },
      "id": "node/5215272087"
    },
    {
      "type": "Feature",
      "properties": {
        "@id": "node/7231160678",
	"category": "Nachbarschaftszentrum",
        "addr:city": "Berlin",
        "addr:country": "DE",
        "addr:housenumber": "6",
        "addr:postcode": "13051",
        "addr:street": "Zingster Straße",
        "addr:suburb": "Neu-Hohenschönhausen",
        "amenity": "social_facility",
        "contact:email": "info@comes-berlin.de",
        "contact:phone": "+49 30 8560660",
        "contact:website": "https://www.comes-berlin.de/",
        "description": "Begleitete Elternschaft",
        "name": "Comes",
        "operator": "Comes e.V.",
        "social_facility": "outreach",
        "social_facility:for": "juvenile"
      },
      "geometry": {
        "type": "Point",
        "coordinates": [
          13.5036311,
          52.5650643
        ]
      },
      "id": "node/7231160678"
    },
    {
      "type": "Feature",
      "properties": {
        "@id": "node/4813345190",
	"category": "Post",
        "amenity": "post_box",
        "collection_times": "Mo-Fr 16:15; Sa 12:15",
        "operator": "Deutsche Post",
        "ref": "Woldegker Str. 8, 13059 Berlin"
      },
      "geometry": {
        "type": "Point",
        "coordinates": [
          13.5121077,
          52.5739293
        ]
      },
      "id": "node/4813345190"
    },
    {
      "type": "Feature",
      "properties": {
        "@id": "node/5127251883",
	"category": "Post",
        "amenity": "post_box",
        "collection_times": "Mo-Fr 16:30; Sa 11:30",
        "operator": "Deutsche Post",
        "ref": "Randowstr. 3, 13057 Berlin"
      },
      "geometry": {
        "type": "Point",
        "coordinates": [
          13.5276242,
          52.5673625
        ]
      },
      "id": "node/5127251883"
    },
    {
      "type": "Feature",
      "properties": {
        "@id": "node/5933902288",
	"category": "Post",
        "amenity": "post_box",
        "collection_times": "Mo-Fr 13:30, 16:30; Sa 11:45",
        "operator": "Deutsche Post",
        "ref": "Pablo-Picasso-Str. 11, 13057 Berlin"
      },
      "geometry": {
        "type": "Point",
        "coordinates": [
          13.5180673,
          52.5640823
        ]
      },
      "id": "node/5933902288"
    },
    {
      "type": "Feature",
      "properties": {
        "@id": "node/7088369386",
	"category": "Post",
        "amenity": "post_box",
        "collection_times": "Mo-Fr 16:00; Sa 12:15",
        "operator": "Deutsche Post",
        "ref": "Schweriner Ring 22, 13059 Berlin"
      },
      "geometry": {
        "type": "Point",
        "coordinates": [
          13.5100328,
          52.5772388
        ]
      },
      "id": "node/7088369386"
    },
    {
      "type": "Feature",
      "properties": {
        "@id": "node/7088369492",
	"category": "Post",
        "amenity": "post_box",
        "collection_times": "Mo-Fr 16:00; Sa 12:15",
        "operator": "Deutsche Post",
        "ref": "Hagenower Ring 82, 13059 Berlin"
      },
      "geometry": {
        "type": "Point",
        "coordinates": [
          13.50688,
          52.5758394
        ]
      },
      "id": "node/7088369492"
    },
    {
      "type": "Feature",
      "properties": {
        "@id": "node/7088482885",
	"category": "Post",
        "amenity": "post_box",
        "collection_times": "Mo-Fr 13:15; Sa 12:00",
        "operator": "Deutsche Post",
        "ref": "Hauptweg 135, 13059 Berlin"
      },
      "geometry": {
        "type": "Point",
        "coordinates": [
          13.5339658,
          52.5787229
        ]
      },
      "id": "node/7088482885"
    },
    {
      "type": "Feature",
      "properties": {
        "@id": "node/7088505185",
	"category": "Post",
        "amenity": "post_box",
        "collection_times": "Mo-Fr 16:45; Sa 11:45",
        "operator": "Deutsche Post",
        "ref": "Biesenbrower Str. 2, 13057 Berlin"
      },
      "geometry": {
        "type": "Point",
        "coordinates": [
          13.5276614,
          52.568279
        ]
      },
      "id": "node/7088505185"
    },
    {
      "type": "Feature",
      "properties": {
        "@id": "node/7088523187",
	"category": "Post",
        "amenity": "post_box",
        "operator": "Pin"
      },
      "geometry": {
        "type": "Point",
        "coordinates": [
          13.5152,
          52.567412
        ]
      },
      "id": "node/7088523187"
    },
    {
      "type": "Feature",
      "properties": {
        "@id": "node/7088568585",
	"category": "Post",
        "amenity": "post_box",
        "collection_times": "Mo-Fr 13:15, 17:15, 21:00; Sa 11:30; Su 09:00, 21:00",
        "operator": "Deutsche Post",
        "ref": "Egon-Erwin-Kisch-Str. 34, 13059 Berlin"
      },
      "geometry": {
        "type": "Point",
        "coordinates": [
          13.5053424,
          52.5729326
        ]
      },
      "id": "node/7088568585"
    },
    {
      "type": "Feature",
      "properties": {
        "@id": "node/7088664286",
	"category": "Post",
        "amenity": "post_box",
        "collection_times": "Mo-Fr 13:45, 17:15; Sa 12:15",
        "operator": "Deutsche Post",
        "ref": "Zingster Str. 5, 13051 Berlin"
      },
      "geometry": {
        "type": "Point",
        "coordinates": [
          13.5034712,
          52.5640531
        ]
      },
      "id": "node/7088664286"
    },
    {
      "type": "Feature",
      "properties": {
        "@id": "node/7088773686",
	"category": "Post",
        "amenity": "post_box",
        "collection_times": "Mo-Fr 17:15; Sa 12:15",
        "operator": "Deutsche Post",
        "ref": "Zingster Str. 74, 13051 Berlin"
      },
      "geometry": {
        "type": "Point",
        "coordinates": [
          13.49739,
          52.5738245
        ]
      },
      "id": "node/7088773686"
    },
    {
      "type": "Feature",
      "properties": {
        "@id": "node/7088915592",
	"category": "Post",
        "amenity": "post_box",
        "collection_times": "Mo-Fr 13:45; Sa 11:30",
        "operator": "Deutsche Post",
        "ref": "Straße 251 7, 13088 Berlin"
      },
      "geometry": {
        "type": "Point",
        "coordinates": [
          13.4892407,
          52.5587749
        ]
      },
      "id": "node/7088915592"
    },
    {
      "type": "Feature",
      "properties": {
        "@id": "node/7090435586",
	"category": "Post",
        "amenity": "post_box",
        "collection_times": "Mo-Fr 14:00; Sa 11:15",
        "operator": "Deutsche Post",
        "ref": "Privatstr. 5 1, 13053 Berlin"
      },
      "geometry": {
        "type": "Point",
        "coordinates": [
          13.5020725,
          52.5582417
        ]
      },
      "id": "node/7090435586"
    },
    {
      "type": "Feature",
      "properties": {
        "@id": "node/7090446787",
	"category": "Post",
        "amenity": "post_box",
        "collection_times": "Mo-Fr 17:00; Sa 12:00",
        "operator": "Deutsche Post",
        "ref": "Falkenberger Ch. 66, 13051 Berlin"
      },
      "geometry": {
        "type": "Point",
        "coordinates": [
          13.5100935,
          52.5643512
        ]
      },
      "id": "node/7090446787"
    },
    {
      "type": "Feature",
      "properties": {
        "@id": "node/7090464385",
	"category": "Post",
        "amenity": "post_box",
        "collection_times": "Mo-Fr 17:00; Sa 12:00",
        "operator": "Deutsche Post",
        "ref": "Falkenberger Ch. 110, 13057 Berlin"
      },
      "geometry": {
        "type": "Point",
        "coordinates": [
          13.5219797,
          52.5678374
        ]
      },
      "id": "node/7090464385"
    },
    {
      "type": "Feature",
      "properties": {
        "@id": "node/7092898085",
	"category": "Post",
        "amenity": "post_box",
        "collection_times": "Mo-Fr 17:00; Sa 12:00",
        "operator": "Deutsche Post",
        "ref": "Christianstr. 8, 13053 Berlin"
      },
      "geometry": {
        "type": "Point",
        "coordinates": [
          13.5197397,
          52.5554502
        ]
      },
      "id": "node/7092898085"
    },
    {
      "type": "Feature",
      "properties": {
        "@id": "node/4537589635",
	"category": "Post",
        "amenity": "post_office"
      },
      "geometry": {
        "type": "Point",
        "coordinates": [
          13.5277572,
          52.5669745
        ]
      },
      "id": "node/4537589635"
    },
    {
      "type": "Feature",
      "properties": {
        "@id": "node/4570362059",
	"category": "Bushaltestelle",
        "highway": "bus_stop",
        "name": "Falkenberger Chaussee/Prendener Straße"
      },
      "geometry": {
        "type": "Point",
        "coordinates": [
          13.5207045,
          52.5679725
        ]
      },
      "id": "node/4570362059"
    },
    {
      "type": "Feature",
      "properties": {
        "@id": "node/5835276604",
	"category": "Bushaltestelle",
        "highway": "bus_stop",
        "name": "Falkenberg"
      },
      "geometry": {
        "type": "Point",
        "coordinates": [
          13.5265112,
          52.5700377
        ]
      },
      "id": "node/5835276604"
    },
    {
      "type": "Feature",
      "properties": {
        "@id": "node/5994173068",
	"category": "Bushaltestelle",
        "highway": "bus_stop",
        "name": "S Hohenschönhausen",
        "shelter": "yes",
        "tactile_paving": "yes"
      },
      "geometry": {
        "type": "Point",
        "coordinates": [
          13.5133023,
          52.5663793
        ]
      },
      "id": "node/5994173068"
    },
    {
      "type": "Feature",
      "properties": {
        "@id": "node/9988776655",
   	"Strasse": "Johann-Jacob-Engel-Straße 20b",
    	"Addresse": "13057 Berlin, Falkenberg (Hohenschönhausen)",
    	"Kaltmiete": "1.378,63 €",
    	"Extras": "Balkon/ Terrasse",
    	"Typ": "Maisonette",
    	"Wohnflaeche": "125,33 m²",
    	"Bezugsfrei": "sofort",
    	"Zimmer": 5,
    	"Schlafzimmer": "",
    	"Bad": "",
    	"Haustiere": "",
    	"Baujahr": 2019,
    	"Zustand": "",
    	"Heizung": "Zentralheizung",
    	"Energietraeger": "KWK fossil",
    	"Energieausweistyp": "Bedarfsausweis",
    	"Energieeffiziensklasse": "A",
    	"Link": "https://www.immobilienscout24.de/expose/114719049"
      },
      "geometry": {
        "type": "Point",
        "coordinates": [
	  13.5596574139137,
	  52.57308445
        ]
      },
      "id": "node/9988776655"
    },
    {
      "type": "Feature",
      "properties": {
        "@id": "node/9977885566",
    	"Strasse": "Randowstr. 24",
    	"Addresse": "13057 Berlin, Neu-Hohenschönhausen (Hohenschönhausen)",
    	"Kaltmiete": "335,13 €",
    	"Extras": "Keller",
    	"Typ": "Etagenwohnung",
    	"Wohnflaeche": "32,6 m²",
    	"Bezugsfrei": "09.12.2019",
    	"Zimmer": 1,
    	"Schlafzimmer": "",
    	"Bad": "",
    	"Haustiere": "",
    	"Baujahr": 1987,
    	"Zustand": "",
    	"Heizung": "Zentralheizung",
    	"Energietraeger": "Fernwärme",
    	"Energieausweistyp": "Bedarfsausweis",
    	"Energieeffiziensklasse": "",
    	"Link": "https://www.immobilienscout24.de/expose/114680544"
      },
      "geometry": {
        "type": "Point",
        "coordinates": [
	  13.5227546,
	  52.5653563
        ]
      },
      "id": "node/9977885566"
    },
    {
      "type": "Feature",
      "properties": {
        "@id": "node/1122553399",
    	"Strasse": "Randowstr. 38",
    	"Addresse": "13057 Berlin, Neu-Hohenschönhausen (Hohenschönhausen)",
    	"Kaltmiete": "326 €",
    	"Extras": "Keller",
    	"Typ": "Etagenwohnung",
    	"Wohnflaeche": "32,6 m²",
    	"Bezugsfrei": "09.12.2019",
    	"Zimmer": 1,
    	"Schlafzimmer": "",
    	"Bad": "",
    	"Haustiere": "",
    	"Baujahr": 1989,
    	"Zustand": "",
    	"Heizung": "Zentralheizung",
    	"Energietraeger": "Fernwärme",
    	"Energieausweistyp": "Bedarfsausweis",
    	"Energieeffiziensklasse": "",
    	"Link": "https://www.immobilienscout24.de/expose/114680542"
      },
      "geometry": {
        "type": "Point",
        "coordinates": [
	  13.5208051,
	  52.5654954
        ]
      },
      "id": "node/1122553399"
    },
    {
      "type": "Feature",
      "properties": {
        "@id": "node/1122553399",
    	"Strasse": "Welsestraße 2",
    	"Addresse": "13057 Berlin, Neu-Hohenschönhausen (Hohenschönhausen)",
    	"Kaltmiete": "679 €",	"Extras": "Balkon/ Terrasse, Keller, Personenaufzug",
    	"Typ": "Etagenwohnung",
    	"Wohnflaeche": "67,35 m²",
    	"Bezugsfrei": "sofort",
    	"Zimmer": 3,
    	"Schlafzimmer": "",
    	"Bad": "",
    	"Haustiere": "",
    	"Baujahr": 1984,
    	"Zustand": "Modernisiert",
    	"Heizung": "Fernwärme",
    	"Energietraeger": "Fernwärme",	"Energieausweistyp": "Verbrauchsausweis",
    	"Energieeffiziensklasse": "C",
    	"Link": "https://www.immobilienscout24.de/expose/114627863"
      },
      "geometry": {
        "type": "Point",
        "coordinates": [
	  13.5265329,
	  52.5684591
        ]
      },
      "id": "node/1122553399"
    },
    {
      "type": "Feature",
      "properties": {
        "@id": "node/7799441122",
    	"Strasse": "Welsestraße 4",
    	"Addresse": "13057 Berlin, Neu-Hohenschönhausen (Hohenschönhausen)",
    	"Kaltmiete": "579 €",
    	"Extras": "Balkon/ Terrasse, Keller, Personenaufzug",
    	"Typ": "Etagenwohnung",
    	"Wohnflaeche": "47,63 m²",
    	"Bezugsfrei": "sofort",
    	"Zimmer": 2,
    	"Schlafzimmer": "",
    	"Bad": "",
    	"Haustiere": "",
    	"Baujahr": 1984,
    	"Zustand": "Modernisiert",
    	"Heizung": "Fernwärme",
    	"Energietraeger": "Fernwärme",
    	"Energieausweistyp": "Verbrauchsausweis",
    	"Energieeffiziensklasse": "C",
    	"Link": "https://www.immobilienscout24.de/expose/114587618"
      },
      "geometry": {
        "type": "Point",
        "coordinates": [
	  13.5267468,
	  52.568292
        ]
      },
      "id": "node/7799441122"
    },
    {
      "type": "Feature",
      "properties": {
        "@id": "node/1188442299",
    	"Strasse": "Falkenberger Chaussee 124",
    	"Addresse": "13057 Berlin, Neu-Hohenschönhausen (Hohenschönhausen)",
    	"Kaltmiete": "729 €",
    	"Extras": "Balkon/ Terrasse, Keller, Personenaufzug",
    	"Typ": "Etagenwohnung",
    	"Wohnflaeche": "71,43 m²",
    	"Bezugsfrei": "01.02.2020",
    	"Zimmer": 3,
    	"Schlafzimmer": "",
    	"Bad": "",
    	"Haustiere": "",
    	"Baujahr": 1984,
    	"Zustand": "Modernisiert",
    	"Heizung": "Fernwärme",
    	"Energietraeger": "Fernwärme",
    	"Energieausweistyp": "Verbrauchsausweis",
    	"Energieeffiziensklasse": "C",
    	"Link": "https://www.immobilienscout24.de/expose/114520755"
      },
      "geometry": {
        "type": "Point",
        "coordinates": [
	  13.5239089,
	  52.5680697
        ]
      },
      "id": "node/1188442299"
    },
    {
      "type": "Feature",
      "properties": {
        "@id": "node/2266883398",
    	"Strasse": "Welsestraße 4",
    	"Addresse": "13057 Berlin, Neu-Hohenschönhausen (Hohenschönhausen)",
    	"Kaltmiete": "779 €",
    	"Extras": "Balkon/ Terrasse, Keller, Personenaufzug, Einbauküche",
    	"Typ": "Etagenwohnung",
    	"Wohnflaeche": "88,16 m²",
    	"Bezugsfrei": "sofort",
    	"Zimmer": 3,
    	"Schlafzimmer": "",
    	"Bad": "",
    	"Haustiere": "",
    	"Baujahr": 1984,
    	"Zustand": "Modernisiert",
    	"Heizung": "Fernwärme",
    	"Energietraeger": "Fernwärme",
    	"Energieausweistyp": "Verbrauchsausweis",
    	"Energieeffiziensklasse": "C",
    	"Link": "https://www.immobilienscout24.de/expose/113369375"
      },
      "geometry": {
        "type": "Point",
        "coordinates": [
	  13.5267468,
	  52.568292
        ]
      },
      "id": "node/2266883398"
    },
  ]
}